[
    {
        "name": "广州大学",
        "address": "广东省广州市番禺区中环西路230号",
        "lng": 113.372149613154,
        "lat": 23.041124559522
    },
    {
        "name": "中山大学(南校园)",
        "address": "广州市海珠区新港西路135号",
        "lng": 13.298400196753,
        "lat": 23.096720337138
    },
    {
        "name": "暨南大学(广州石牌校区)",
        "address": "广州市天河区黄埔大道西601号",
        "lng": 113.347966117669,
        "lat": 23.131145880642
    },
    {
        "name": "华南理工大学(大学城校区)",
        "address": "广州市番禺区外环东路382号",
        "lng": 113.405525763234,
        "lat": 23.048577193364
    },
    {
        "name": "深圳大学",
        "address": "广东省深圳市南山区南海大道3688号 ",
        "lng": 113.936104035928,
        "lat": 22.53378852531
    }
]
