[
    {
        "name": "广州大学",
        "address": "广东省广州市番禺区中环西路230号",
        "lng": 113.37214954712807,
        "lat": 23.04112467410405
    },
    {
        "name": "中山大学(南校园)",
        "address": "广州市海珠区新港西路135号",
        "lng": 113.29840050043069,
        "lat": 23.096719848962795
    },
    {
        "name": "暨南大学(广州石牌校区)",
        "address": "广州市天河区黄埔大道西601号",
        "lng": 113.3476816710917,
        "lat": 23.12828389281978
    },
    {
        "name": "华南理工大学(大学城校区)",
        "address": "广州市番禺区外环东路382号",
        "lng": 113.40552552065336,
        "lat": 23.048576841525566
    },
    {
        "name": "深圳大学",
        "address": "广东省深圳市南山区南海大道3688号 ",
        "lng": 113.93279785807871,
        "lat": 22.533078659157177
    }
]