[
    {
        "name": "广州大学",
        "address": "广东省广州市番禺区中环西路230号",
        "lng": 113.378643,
        "lat": 23.047163
    },
    {
        "name": "中山大学(南校园)",
        "address": "广州市海珠区新港西路135号",
        "lng": 113.304864,
        "lat": 23.102915
    },
    {
        "name": "暨南大学(广州石牌校区)",
        "address": "广州市天河区黄埔大道西601号",
        "lng": 113.35451,
        "lat": 23.136831
    },
    {
        "name": "华南理工大学(大学城校区)",
        "address": "广州市番禺区外环东路382号",
        "lng": 113.411968,
        "lat": 23.054905
    },
    {
        "name": "深圳大学",
        "address": "广东省深圳市南山区南海大道3688号 ",
        "lng": 113.942651,
        "lat": 22.53945
    }
]